{
"type": "FeatureCollection",
"crs": { "type": "name", "properties": { "name": "urn:ogc:def:crs:OGC:1.3:CRS84" } },
"features": [
{ "type": "Feature", "properties": { "title": "Aulaiouteichos\/Agathopolis", "source": 216721, "target": "501458", "start_date": -306, "end_date": "-281" }, "geometry": { "type": "Point", "coordinates": [ 27.939514, 42.0994 ] } },
{ "type": "Feature", "properties": { "title": "Callatis", "source": 216744, "target": "501458", "start_date": -309, "end_date": "-281" }, "geometry": { "type": "Point", "coordinates": [ 28.58275, 43.817152 ] } },
{ "type": "Feature", "properties": { "title": "Histria", "source": 216839, "target": "501458", "start_date": -312, "end_date": "-281" }, "geometry": { "type": "Point", "coordinates": [ 28.7748, 44.5476 ] } },
{ "type": "Feature", "properties": { "title": "Odessus", "source": 216904, "target": "501458", "start_date": -312, "end_date": "-281" }, "geometry": { "type": "Point", "coordinates": [ 27.9134725, 43.2061605 ] } },
{ "type": "Feature", "properties": { "title": "Pella\/Diokletianoupolis", "source": 491687, "target": "501458", "start_date": -285, "end_date": "-281" }, "geometry": { "type": "Point", "coordinates": [ 22.5220635, 40.757294 ] } },
{ "type": "Feature", "properties": { "title": "Poteidaia\/Kassandreia", "source": 491701, "target": "501458", "start_date": -284, "end_date": "-281" }, "geometry": { "type": "Point", "coordinates": [ 23.327812, 40.193696 ] } },
{ "type": "Feature", "properties": { "title": "Abydos", "source": 501325, "target": "501458", "start_date": -295, "end_date": "-281" }, "geometry": { "type": "Point", "coordinates": [ 26.409131, 40.1951155 ] } },
{ "type": "Feature", "properties": { "title": "Amphipolis", "source": 501347, "target": "501458", "start_date": -284, "end_date": "-281" }, "geometry": { "type": "Point", "coordinates": [ 23.847005, 40.8219755 ] } },
{ "type": "Feature", "properties": { "title": "Hellespont", "source": 501434, "target": "501458", "start_date": -323, "end_date": "-281" }, "geometry": { "type": "Point", "coordinates": [ 26.4, 40.2 ] } },
{ "type": "Feature", "properties": { "title": "Kardia\/Lysimacheia", "source": 501458, "target": "501458", "start_date": -306, "end_date": "-281" }, "geometry": { "type": "Point", "coordinates": [ 26.75081, 40.548232 ] } },
{ "type": "Feature", "properties": { "title": "Pityoussa\/Lampsacus", "source": 501570, "target": "501458", "start_date": -295, "end_date": "-281" }, "geometry": { "type": "Point", "coordinates": [ 26.699162, 40.346685 ] } },
{ "type": "Feature", "properties": { "title": "Samothrace", "source": 501596, "target": "501458", "start_date": -295, "end_date": "-281" }, "geometry": { "type": "Point", "coordinates": [ 25.53004955, 40.50370085 ] } },
{ "type": "Feature", "properties": { "title": "Thracia", "source": 501638, "target": "501458", "start_date": -323, "end_date": "-281" }, "geometry": { "type": "Point", "coordinates": [ 23.129408, 40.288041 ] } },
{ "type": "Feature", "properties": { "title": "Helikore\/Nicaea", "source": 511268, "target": "501458", "start_date": -306, "end_date": "-281" }, "geometry": { "type": "Point", "coordinates": [ 29.714681666699999, 40.429093666699998 ] } },
{ "type": "Feature", "properties": { "title": "Parium\/Col. Gemella Iulia *Hadriana", "source": 511354, "target": "501458", "start_date": -295, "end_date": "-281" }, "geometry": { "type": "Point", "coordinates": [ 27.069096, 40.420499 ] } },
{ "type": "Feature", "properties": { "title": "Salmydessos", "source": 511404, "target": "501458", "start_date": -323, "end_date": "-281" }, "geometry": { "type": "Point", "coordinates": [ 28.091144, 41.637244 ] } },
{ "type": "Feature", "properties": { "title": "Antigoneia\/(Col. Augusta) Alexandria Troas", "source": 550434, "target": "501458", "start_date": -306, "end_date": "-281" }, "geometry": { "type": "Point", "coordinates": [ 26.1547495, 39.7564735 ] } },
{ "type": "Feature", "properties": { "title": "Chios", "source": 550496, "target": "501458", "start_date": -295, "end_date": "-281" }, "geometry": { "type": "Point", "coordinates": [ 26.1342335, 38.37641 ] } },
{ "type": "Feature", "properties": { "title": "Erythrai", "source": 550535, "target": "501458", "start_date": -295, "end_date": "-281" }, "geometry": { "type": "Point", "coordinates": [ 26.47994, 38.382361 ] } },
{ "type": "Feature", "properties": { "title": "Ilium\/Troia", "source": 550595, "target": "501458", "start_date": -295, "end_date": "-281" }, "geometry": { "type": "Point", "coordinates": [ 26.238458622700001, 39.957432784399998 ] } },
{ "type": "Feature", "properties": { "title": "Klazomenai (later)", "source": 550651, "target": "501458", "start_date": -295, "end_date": "-281" }, "geometry": { "type": "Point", "coordinates": [ 26.77422735, 38.363596416699998 ] } },
{ "type": "Feature", "properties": { "title": "Naulochon\/Smyrna\/Palaia Smyrna", "source": 550771, "target": "501458", "start_date": -295, "end_date": "-281" }, "geometry": { "type": "Point", "coordinates": [ 27.14781, 38.440912 ] } },
{ "type": "Feature", "properties": { "title": "Pergamum", "source": 550812, "target": "501458", "start_date": -295, "end_date": "-281" }, "geometry": { "type": "Point", "coordinates": [ 27.1845303333, 39.131213333300003 ] } },
{ "type": "Feature", "properties": { "title": " Sardis\/Hyde?", "source": 550867, "target": "501458", "start_date": -286, "end_date": "-281" }, "geometry": { "type": "Point", "coordinates": [ 28.040286, 38.488314 ] } },
{ "type": "Feature", "properties": { "title": "Sigeion", "source": 550877, "target": "501458", "start_date": -295, "end_date": "-281" }, "geometry": { "type": "Point", "coordinates": [ 26.180869, 39.9835305 ] } },
{ "type": "Feature", "properties": { "title": "Teos", "source": 550913, "target": "501458", "start_date": -295, "end_date": "-281" }, "geometry": { "type": "Point", "coordinates": [ 26.785397, 38.185491 ] } },
{ "type": "Feature", "properties": { "title": "Colophon", "source": 599577, "target": "501458", "start_date": -295, "end_date": "-281" }, "geometry": { "type": "Point", "coordinates": [ 27.1483085, 38.108253 ] } },
{ "type": "Feature", "properties": { "title": "Ephesus\/Arsinoe(ia)", "source": 599612, "target": "501458", "start_date": -285, "end_date": "-281" }, "geometry": { "type": "Point", "coordinates": [ 27.340307, 37.9407625 ] } },
{ "type": "Feature", "properties": { "title": "Lebedos\/Ptolemais", "source": 599754, "target": "501458", "start_date": -294, "end_date": "-281" }, "geometry": { "type": "Point", "coordinates": [ 26.964722, 38.077883 ] } },
{ "type": "Feature", "properties": { "title": "Magnesia ad Maeandrum\/Leukophrys", "source": 599778, "target": "501458", "start_date": -285, "end_date": "-281" }, "geometry": { "type": "Point", "coordinates": [ 27.526039, 37.8505485 ] } },
{ "type": "Feature", "properties": { "title": "Miletus", "source": 599799, "target": "501458", "start_date": -285, "end_date": "-281" }, "geometry": { "type": "Point", "coordinates": [ 27.2783168333, 37.522904733300003 ] } },
{ "type": "Feature", "properties": { "title": "Priene\/‘Lince’?", "source": 599905, "target": "501458", "start_date": -283, "end_date": null }, "geometry": { "type": "Point", "coordinates": [ 27.298333, 37.66 ] } },
{ "type": "Feature", "properties": { "title": "Samos", "source": 599925, "target": "501458", "start_date": -295, "end_date": "-281" }, "geometry": { "type": "Point", "coordinates": [ 26.944483, 37.68825 ] } },
{ "type": "Feature", "properties": { "title": "Tralles\/Dia\/Seleuceia ad Maeandrum\/Kaisareia", "source": 599987, "target": "501458", "start_date": -301, "end_date": "-281" }, "geometry": { "type": "Point", "coordinates": [ 27.839042, 37.8566255 ] } },
{ "type": "Feature", "properties": { "title": "Dokimeion", "source": 609366, "target": "501458", "start_date": -301, "end_date": "-281" }, "geometry": { "type": "Point", "coordinates": [ 30.7524503667, 38.8627673 ] } },
{ "type": "Feature", "properties": { "title": "Synnada", "source": 609538, "target": "501458", "start_date": -301, "end_date": "-281" }, "geometry": { "type": "Point", "coordinates": [ 30.548095, 38.534617766700002 ] } },
{ "type": "Feature", "properties": { "title": "Apamea\/Kelainai\/Kibotos", "source": 638751, "target": "501458", "start_date": -301, "end_date": "-281" }, "geometry": { "type": "Point", "coordinates": [ 30.169066275, 38.068301025 ] } },
{ "type": "Feature", "properties": { "title": "Colossae", "source": 638811, "target": "501458", "start_date": -301, "end_date": "-281" }, "geometry": { "type": "Point", "coordinates": [ 29.258071666700001, 37.793095666699998 ] } }
]
}
