{
"type": "FeatureCollection",
"crs": { "type": "name", "properties": { "name": "urn:ogc:def:crs:OGC:1.3:CRS84" } },
"features": [
{ "type": "Feature", "properties": { "title": "Alexandria", "source": 727070, "target": "463803480", "start_date": null, "end_date": null }, "geometry": { "type": "Point", "coordinates": [ 29.909773, 31.201435 ] } },
{ "type": "Feature", "properties": { "title": "Heliopolis", "source": 727117, "target": "463803480", "start_date": null, "end_date": null }, "geometry": { "type": "Point", "coordinates": [ 31.284786, 30.131757 ] } },
{ "type": "Feature", "properties": { "title": "Philoteris", "source": 737010, "target": "463803480", "start_date": null, "end_date": null }, "geometry": { "type": "Point", "coordinates": [ 30.467953, 29.383026 ] } },
{ "type": "Feature", "properties": { "title": "Luxor Temple", "source": 71626430, "target": "463803480", "start_date": null, "end_date": null }, "geometry": { "type": "Point", "coordinates": [ 32.6380625, 25.6985252 ] } },
{ "type": "Feature", "properties": { "title": "Tentyra", "source": 786127, "target": "463803480", "start_date": null, "end_date": null }, "geometry": { "type": "Point", "coordinates": [ 32.670097222199999, 26.141775 ] } },
{ "type": "Feature", "properties": { "title": "Samos", "source": 599925, "target": "463803480", "start_date": -204.0, "end_date": "-197" }, "geometry": { "type": "Point", "coordinates": [ 26.944483, 37.68825 ] } },
{ "type": "Feature", "properties": { "title": "Ptolemais Hermiou\/Psoi", "source": 756635, "target": "463803480", "start_date": null, "end_date": null }, "geometry": { "type": "Point", "coordinates": [ 31.802799, 26.4773795 ] } },
{ "type": "Feature", "properties": { "title": "Karnak", "source": 786050, "target": "463803480", "start_date": null, "end_date": null }, "geometry": { "type": "Point", "coordinates": [ 32.657891351700002, 25.718930073599999 ] } },
{ "type": "Feature", "properties": { "title": "Ephesus\/Arsinoe(ia)", "source": 599612, "target": "463803480", "start_date": -222.0, "end_date": "-197" }, "geometry": { "type": "Point", "coordinates": [ 27.340307, 37.9407625 ] } },
{ "type": "Feature", "properties": { "title": "Diospolis Magna\/Thebai", "source": 786017, "target": "463803480", "start_date": null, "end_date": null }, "geometry": { "type": "Point", "coordinates": [ 32.631884, 25.664781 ] } },
{ "type": "Feature", "properties": { "title": "Memphis", "source": 736963, "target": "463803480", "start_date": null, "end_date": null }, "geometry": { "type": "Point", "coordinates": [ 31.255061, 29.849491 ] } },
{ "type": "Feature", "properties": { "title": "Coptos", "source": 786010, "target": "463803480", "start_date": null, "end_date": null }, "geometry": { "type": "Point", "coordinates": [ 32.815787, 25.996402 ] } },
{ "type": "Feature", "properties": { "title": "Naucratis", "source": 727169, "target": "463803480", "start_date": null, "end_date": null }, "geometry": { "type": "Point", "coordinates": [ 30.5919275, 30.900508 ] } },
{ "type": "Feature", "properties": { "title": "Antiochia\/Theoupolis", "source": 658381, "target": "463803480", "start_date": -246.0, "end_date": null }, "geometry": { "type": "Point", "coordinates": [ 36.183214, 36.2225515 ] } },
{ "type": "Feature", "properties": { "title": "Pelusium", "source": 727192, "target": "463803480", "start_date": null, "end_date": null }, "geometry": { "type": "Point", "coordinates": [ 32.600128, 31.049917 ] } },
{ "type": "Feature", "properties": { "title": "Krokodilopolis\/Ptolemais Euergetis", "source": 736948, "target": "463803480", "start_date": null, "end_date": null }, "geometry": { "type": "Point", "coordinates": [ 30.8399565, 29.3149635 ] } },
{ "type": "Feature", "properties": { "title": "Dionysias", "source": 736904, "target": "463803480", "start_date": null, "end_date": null }, "geometry": { "type": "Point", "coordinates": [ 30.417435, 29.40642 ] } },
{ "type": "Feature", "properties": { "title": "Cyrene", "source": 373778, "target": "463803480", "start_date": null, "end_date": null }, "geometry": { "type": "Point", "coordinates": [ 21.856554688100001, 32.820348545 ] } },
{ "type": "Feature", "properties": { "title": "Kynopolis\/Sko\/Euergetis", "source": 736949, "target": "463803480", "start_date": -163.0, "end_date": "-132" }, "geometry": { "type": "Point", "coordinates": [ 30.782897, 28.479495 ] } },
{ "type": "Feature", "properties": { "title": "Hydatos Potamoi\/Seleukeia Pieria", "source": 658483, "target": "463803480", "start_date": -246.0, "end_date": null }, "geometry": { "type": "Point", "coordinates": [ 35.9285965, 36.1212645 ] } },
{ "type": "Feature", "properties": { "title": "Canopus", "source": 727097, "target": "463803480", "start_date": -222.0, "end_date": null }, "geometry": { "type": "Point", "coordinates": [ 30.0580595, 31.313404 ] } },
{ "type": "Feature", "properties": { "title": "Ptolemais Hormou", "source": 737029, "target": "463803480", "start_date": null, "end_date": null }, "geometry": { "type": "Point", "coordinates": [ 30.968603, 29.206382 ] } },
{ "type": "Feature", "properties": { "title": "Kleopatra", "source": 756586, "target": "463803480", "start_date": -163.0, "end_date": "-132" }, "geometry": { "type": "Point", "coordinates": [ 30.757485, 27.776838 ] } },
{ "type": "Feature", "properties": { "title": "Raphia", "source": 688015, "target": "463803480", "start_date": -217.0, "end_date": null }, "geometry": { "type": "Point", "coordinates": [ 34.242503, 31.290688 ] } },
{ "type": "Feature", "properties": { "title": "Platanos?\/Platane?", "source": 678336, "target": "463803480", "start_date": -282.0, "end_date": null }, "geometry": { "type": "Point", "coordinates": [ 35.518736, 33.763156 ] } },
{ "type": "Feature", "properties": { "title": "Philadelpheia", "source": 737008, "target": "463803480", "start_date": null, "end_date": null }, "geometry": { "type": "Point", "coordinates": [ 31.08033, 29.453786 ] } },
{ "type": "Feature", "properties": { "title": "Apollonopolis Magna", "source": 785974, "target": "463803480", "start_date": null, "end_date": null }, "geometry": { "type": "Point", "coordinates": [ 32.873196, 24.9803375 ] } },
{ "type": "Feature", "properties": { "title": "Theadelpheia", "source": 737081, "target": "463803480", "start_date": null, "end_date": null }, "geometry": { "type": "Point", "coordinates": [ 30.49696, 29.348065 ] } },
{ "type": "Feature", "properties": { "title": "Oxyrhynchus\/Pemje", "source": 736983, "target": "463803480", "start_date": null, "end_date": null }, "geometry": { "type": "Point", "coordinates": [ 30.65172, 28.542574 ] } },
{ "type": "Feature", "properties": { "title": "Arsinoites\/Krokodeilopolites Nomos", "source": 736893, "target": "463803480", "start_date": null, "end_date": null }, "geometry": { "type": "Point", "coordinates": [ 30.75, 29.25 ] } }
]
}
