{
"type": "FeatureCollection",
"crs": { "type": "name", "properties": { "name": "urn:ogc:def:crs:OGC:1.3:CRS84" } },
"features": [
{ "type": "Feature", "properties": { "title": "Gephrous\/Ephron", "source": 678157, "target": "45635759", "start_date": null, "end_date": null }, "geometry": { "type": "Point", "coordinates": [ 35.719967, 32.537863 ] } },
{ "type": "Feature", "properties": { "title": "Jebel Khayabir\/Alexandria?\/Antiochia?\/Spasinou Charax?\/Karkh Maisan?\/[Astarabad Ardashir]?", "source": 912872, "target": "45635759", "start_date": null, "end_date": null }, "geometry": { "type": "Point", "coordinates": [ 47.562804, 30.8093425 ] } },
{ "type": "Feature", "properties": { "title": "Sely(m)bria\/Eudoxiopolis", "source": 511414, "target": "45635759", "start_date": null, "end_date": "-188" }, "geometry": { "type": "Point", "coordinates": [ 28.247677, 41.078496 ] } },
{ "type": "Feature", "properties": { "title": "Drangiane\/Zarangiane (region)", "source": 29547, "target": "45635759", "start_date": null, "end_date": null }, "geometry": { "type": "Point", "coordinates": [ 62.5, 32.5 ] } },
{ "type": "Feature", "properties": { "title": "Scythopolis\/Nysa", "source": 678378, "target": "45635759", "start_date": null, "end_date": null }, "geometry": { "type": "Point", "coordinates": [ 35.502981, 32.5033615 ] } },
{ "type": "Feature", "properties": { "title": "Epiphaneia ad Euphratem", "source": 658460, "target": "45635759", "start_date": null, "end_date": null }, "geometry": { "type": "Point", "coordinates": [ 37.877961, 37.098167 ] } },
{ "type": "Feature", "properties": { "title": "Mesopotamia", "source": 1001936, "target": "45635759", "start_date": null, "end_date": null }, "geometry": { "type": "Point", "coordinates": [ 37.5, 37.5 ] } },
{ "type": "Feature", "properties": { "title": "Adora", "source": 687810, "target": "45635759", "start_date": null, "end_date": null }, "geometry": { "type": "Point", "coordinates": [ 35.027257, 31.506582 ] } },
{ "type": "Feature", "properties": { "title": "Gala(a)ditis", "source": 678143, "target": "45635759", "start_date": null, "end_date": null }, "geometry": { "type": "Point", "coordinates": [ 35.75, 32.75 ] } },
{ "type": "Feature", "properties": { "title": "Marathos", "source": 668306, "target": "45635759", "start_date": null, "end_date": null }, "geometry": { "type": "Point", "coordinates": [ 35.9076265, 34.832632 ] } },
{ "type": "Feature", "properties": { "title": "Arbela", "source": 678029, "target": "45635759", "start_date": null, "end_date": null }, "geometry": { "type": "Point", "coordinates": [ 35.504873, 32.807057 ] } },
{ "type": "Feature", "properties": { "title": "Sestos", "source": 501609, "target": "45635759", "start_date": null, "end_date": "-188" }, "geometry": { "type": "Point", "coordinates": [ 26.40291625, 40.2206527 ] } },
{ "type": "Feature", "properties": { "title": "Seleukeia", "source": 639099, "target": "45635759", "start_date": null, "end_date": "-188" }, "geometry": { "type": "Point", "coordinates": [ 31.3547, 36.852067 ] } },
{ "type": "Feature", "properties": { "title": "Areth(o)usa", "source": 668199, "target": "45635759", "start_date": null, "end_date": null }, "geometry": { "type": "Point", "coordinates": [ 36.735111, 34.960169 ] } },
{ "type": "Feature", "properties": { "title": "Bargylia", "source": 599550, "target": "45635759", "start_date": null, "end_date": "-188" }, "geometry": { "type": "Point", "coordinates": [ 27.588037, 37.1957785 ] } },
{ "type": "Feature", "properties": { "title": "Berytus\/Laodikeia en te Phoinike\/Col. Iulia Augusta Felix", "source": 678060, "target": "45635759", "start_date": null, "end_date": null }, "geometry": { "type": "Point", "coordinates": [ 35.511241, 33.8985935 ] } },
{ "type": "Feature", "properties": { "title": "Telmessos", "source": 639137, "target": "45635759", "start_date": null, "end_date": "-188" }, "geometry": { "type": "Point", "coordinates": [ 29.114146933299999, 36.622144066700002 ] } },
{ "type": "Feature", "properties": { "title": "Gabala", "source": 668250, "target": "45635759", "start_date": null, "end_date": null }, "geometry": { "type": "Point", "coordinates": [ 35.922327, 35.378062 ] } },
{ "type": "Feature", "properties": { "title": "Kobedyle", "source": 614706, "target": "45635759", "start_date": null, "end_date": "-188" }, "geometry": { "type": "Point", "coordinates": [ 28.75, 38.75 ] } },
{ "type": "Feature", "properties": { "title": "Apolloniatis\/Sittacene", "source": 893939, "target": "45635759", "start_date": null, "end_date": null }, "geometry": { "type": "Point", "coordinates": [ 44.5, 33.5 ] } },
{ "type": "Feature", "properties": { "title": "Chasp(h)o", "source": 678089, "target": "45635759", "start_date": null, "end_date": null }, "geometry": { "type": "Point", "coordinates": [ 35.8441, 32.864811 ] } },
{ "type": "Feature", "properties": { "title": "Cilicia", "source": 658440, "target": "45635759", "start_date": null, "end_date": "-188" }, "geometry": { "type": "Point", "coordinates": [ 33.25, 36.25 ] } },
{ "type": "Feature", "properties": { "title": "Emmaus\/Nicopolis", "source": 687891, "target": "45635759", "start_date": null, "end_date": null }, "geometry": { "type": "Point", "coordinates": [ 34.989428, 31.839295 ] } },
{ "type": "Feature", "properties": { "title": "Varkana\/Hyrcania\/Gurgan", "source": 942333, "target": "45635759", "start_date": -282.0, "end_date": "-245" }, "geometry": { "type": "Point", "coordinates": [ 56.3, 37.1 ] } },
{ "type": "Feature", "properties": { "title": "Alabanda\/Antiocheia Chrysaoron", "source": 599479, "target": "45635759", "start_date": -274.0, "end_date": "-261" }, "geometry": { "type": "Point", "coordinates": [ 27.970901, 37.5973855 ] } },
{ "type": "Feature", "properties": { "title": "Veh Ardashir\/Coche\/Mahoza\/‘Seleucia’", "source": 894178, "target": "45635759", "start_date": null, "end_date": null }, "geometry": { "type": "Point", "coordinates": [ 44.551979, 33.09914 ] } },
{ "type": "Feature", "properties": { "title": "Apollonia\/Mordiaion\/Sozopolis", "source": 638758, "target": "45635759", "start_date": -281.0, "end_date": "-261" }, "geometry": { "type": "Point", "coordinates": [ 30.46384, 38.0757215 ] } },
{ "type": "Feature", "properties": { "title": "Hippos", "source": 678185, "target": "45635759", "start_date": null, "end_date": null }, "geometry": { "type": "Point", "coordinates": [ 35.6597945, 32.7786705 ] } },
{ "type": "Feature", "properties": { "title": "Phoenice (region)", "source": 678334, "target": "45635759", "start_date": null, "end_date": null }, "geometry": { "type": "Point", "coordinates": [ 35.25, 33.25 ] } },
{ "type": "Feature", "properties": { "title": "Stratonikeia", "source": 599947, "target": "45635759", "start_date": -281.0, "end_date": "-261" }, "geometry": { "type": "Point", "coordinates": [ 28.061849, 37.3137095 ] } },
{ "type": "Feature", "properties": { "title": "Laodikeia (Katakekaumene)\/Claudiolaodicea", "source": 619197, "target": "45635759", "start_date": null, "end_date": "-188" }, "geometry": { "type": "Point", "coordinates": [ 32.374024, 38.192186 ] } },
{ "type": "Feature", "properties": { "title": "Mylasa", "source": 599809, "target": "45635759", "start_date": null, "end_date": "-188" }, "geometry": { "type": "Point", "coordinates": [ 27.790238666699999, 37.3027506667 ] } },
{ "type": "Feature", "properties": { "title": "Magnesia ad Maeandrum\/Leukophrys", "source": 599778, "target": "45635759", "start_date": null, "end_date": "-188" }, "geometry": { "type": "Point", "coordinates": [ 27.526039, 37.8505485 ] } },
{ "type": "Feature", "properties": { "title": "Maroneia", "source": 501507, "target": "45635759", "start_date": null, "end_date": "-188" }, "geometry": { "type": "Point", "coordinates": [ 25.511426, 40.873751 ] } },
{ "type": "Feature", "properties": { "title": "Cyme", "source": 550506, "target": "45635759", "start_date": -282.0, "end_date": "-218" }, "geometry": { "type": "Point", "coordinates": [ 26.9392185, 38.760689 ] } },
{ "type": "Feature", "properties": { "title": "Ja Nishin\/Soloke?\/Seleucia?\/Surak?", "source": 912870, "target": "45635759", "start_date": null, "end_date": null }, "geometry": { "type": "Point", "coordinates": [ 49.426712, 30.987225 ] } },
{ "type": "Feature", "properties": { "title": "Naulochon\/Smyrna\/Palaia Smyrna", "source": 550771, "target": "45635759", "start_date": -282.0, "end_date": "-218" }, "geometry": { "type": "Point", "coordinates": [ 27.14781, 38.440912 ] } },
{ "type": "Feature", "properties": { "title": "[Khuvar]\/Choara\/Apameia (Rhagiane)?", "source": 942286, "target": "45635759", "start_date": null, "end_date": null }, "geometry": { "type": "Point", "coordinates": [ 52.497326, 35.286884 ] } },
{ "type": "Feature", "properties": { "title": "Heliopolis\/Col. Iulia Augusta Felix", "source": 678179, "target": "45635759", "start_date": null, "end_date": null }, "geometry": { "type": "Point", "coordinates": [ 36.2021205, 34.0110135 ] } },
{ "type": "Feature", "properties": { "title": "Pergamum", "source": 550812, "target": "45635759", "start_date": null, "end_date": "-188" }, "geometry": { "type": "Point", "coordinates": [ 27.1845303333, 39.131213333300003 ] } },
{ "type": "Feature", "properties": { "title": "Pityoussa\/Lampsacus", "source": 501570, "target": "45635759", "start_date": null, "end_date": "-188" }, "geometry": { "type": "Point", "coordinates": [ 26.699162, 40.346685 ] } },
{ "type": "Feature", "properties": { "title": "Adana\/Antiochia ad Sarum", "source": 648548, "target": "45635759", "start_date": -294.0, "end_date": "-164" }, "geometry": { "type": "Point", "coordinates": [ 35.3325011, 36.9949537 ] } },
{ "type": "Feature", "properties": { "title": "Parapotamia", "source": 668334, "target": "45635759", "start_date": null, "end_date": null }, "geometry": { "type": "Point", "coordinates": [ 38.75, 35.75 ] } },
{ "type": "Feature", "properties": { "title": "Limyra", "source": 638961, "target": "45635759", "start_date": null, "end_date": "-188" }, "geometry": { "type": "Point", "coordinates": [ 30.170239, 36.341966 ] } },
{ "type": "Feature", "properties": { "title": "Mopsou(h)estia\/Seleukeia pros to Pyramo", "source": 658538, "target": "45635759", "start_date": null, "end_date": null }, "geometry": { "type": "Point", "coordinates": [ 35.61627, 36.9644503333 ] } },
{ "type": "Feature", "properties": { "title": "Mysia (region)", "source": 550759, "target": "45635759", "start_date": -282.0, "end_date": "-218" }, "geometry": { "type": "Point", "coordinates": [ 27.1750848165, 39.125041887400002 ] } },
{ "type": "Feature", "properties": { "title": "Thyateira", "source": 550924, "target": "45635759", "start_date": null, "end_date": "-188" }, "geometry": { "type": "Point", "coordinates": [ 27.844879, 38.910724 ] } },
{ "type": "Feature", "properties": { "title": "Elaitikos Sinus", "source": 550525, "target": "45635759", "start_date": -282.0, "end_date": "-263" }, "geometry": { "type": "Point", "coordinates": [ 26.9166685, 38.8666685 ] } },
{ "type": "Feature", "properties": { "title": "Kibyra Mikra", "source": 638917, "target": "45635759", "start_date": null, "end_date": "-188" }, "geometry": { "type": "Point", "coordinates": [ 31.659825, 36.659851 ] } },
{ "type": "Feature", "properties": { "title": "Damascus", "source": 678106, "target": "45635759", "start_date": null, "end_date": null }, "geometry": { "type": "Point", "coordinates": [ 36.309102, 33.511612 ] } },
{ "type": "Feature", "properties": { "title": "Stratonicaea\/Hadrianopolis", "source": 550898, "target": "45635759", "start_date": -281.0, "end_date": "-261" }, "geometry": { "type": "Point", "coordinates": [ 27.801765, 39.142114 ] } },
{ "type": "Feature", "properties": { "title": "Pelusium", "source": 727192, "target": "45635759", "start_date": null, "end_date": null }, "geometry": { "type": "Point", "coordinates": [ 32.600128, 31.049917 ] } },
{ "type": "Feature", "properties": { "title": "Soloi\/Pompeiopolis", "source": 648781, "target": "45635759", "start_date": null, "end_date": null }, "geometry": { "type": "Point", "coordinates": [ 34.539221666700001, 36.740055666700002 ] } },
{ "type": "Feature", "properties": { "title": "Arados", "source": 668197, "target": "45635759", "start_date": null, "end_date": null }, "geometry": { "type": "Point", "coordinates": [ 35.858433166700003, 34.857075 ] } },
{ "type": "Feature", "properties": { "title": "Mesene\/Characene\/Shad Bahman\/Maisan", "source": 912905, "target": "45635759", "start_date": null, "end_date": null }, "geometry": { "type": "Point", "coordinates": [ 47.562804, 30.8093425 ] } },
{ "type": "Feature", "properties": { "title": "Thracia", "source": 501638, "target": "45635759", "start_date": null, "end_date": "-188" }, "geometry": { "type": "Point", "coordinates": [ 23.129408, 40.288041 ] } },
{ "type": "Feature", "properties": { "title": "Aegae", "source": 550404, "target": "45635759", "start_date": -281.0, "end_date": "-228" }, "geometry": { "type": "Point", "coordinates": [ 27.19367, 38.83379 ] } },
{ "type": "Feature", "properties": { "title": "D(o)ura\/Europos", "source": 893990, "target": "45635759", "start_date": null, "end_date": null }, "geometry": { "type": "Point", "coordinates": [ 40.730028860499999, 34.747546619 ] } },
{ "type": "Feature", "properties": { "title": "Hydatos Potamoi\/Seleukeia Pieria", "source": 658483, "target": "45635759", "start_date": null, "end_date": null }, "geometry": { "type": "Point", "coordinates": [ 35.9285965, 36.1212645 ] } },
{ "type": "Feature", "properties": { "title": "Alexandria\/Antiochia\/Merv", "source": 961873, "target": "45635759", "start_date": null, "end_date": null }, "geometry": { "type": "Point", "coordinates": [ 62.1926395, 37.6662575 ] } },
{ "type": "Feature", "properties": { "title": "Pamphylia (region)", "source": 639034, "target": "45635759", "start_date": null, "end_date": "-188" }, "geometry": { "type": "Point", "coordinates": [ 30.98638, 36.990721 ] } },
{ "type": "Feature", "properties": { "title": "Chalcis ad Belum", "source": 668226, "target": "45635759", "start_date": null, "end_date": null }, "geometry": { "type": "Point", "coordinates": [ 37.009719, 36.007956 ] } },
{ "type": "Feature", "properties": { "title": "Uruk\/Orchoe\/Erech\/Orikut", "source": 912986, "target": "45635759", "start_date": null, "end_date": null }, "geometry": { "type": "Point", "coordinates": [ 45.61715, 31.318603 ] } },
{ "type": "Feature", "properties": { "title": "Antiochia ad Maeandrum", "source": 638748, "target": "45635759", "start_date": -281.0, "end_date": "-261" }, "geometry": { "type": "Point", "coordinates": [ 28.548284, 37.873542 ] } },
{ "type": "Feature", "properties": { "title": "Gadara\/Pompeia", "source": 678142, "target": "45635759", "start_date": null, "end_date": null }, "geometry": { "type": "Point", "coordinates": [ 35.6781455, 32.655922 ] } },
{ "type": "Feature", "properties": { "title": "Phrygia", "source": 609502, "target": "45635759", "start_date": -282.0, "end_date": "-245" }, "geometry": { "type": "Point", "coordinates": [ 29.75, 38.75 ] } },
{ "type": "Feature", "properties": { "title": "Botrys", "source": 668214, "target": "45635759", "start_date": null, "end_date": null }, "geometry": { "type": "Point", "coordinates": [ 35.659726, 34.253561 ] } },
{ "type": "Feature", "properties": { "title": " Sardis\/Hyde?", "source": 550867, "target": "45635759", "start_date": null, "end_date": "-188" }, "geometry": { "type": "Point", "coordinates": [ 28.040286, 38.488314 ] } },
{ "type": "Feature", "properties": { "title": "Galilaea", "source": 678145, "target": "45635759", "start_date": null, "end_date": null }, "geometry": { "type": "Point", "coordinates": [ 35.25, 32.75 ] } },
{ "type": "Feature", "properties": { "title": "Iasos", "source": 599664, "target": "45635759", "start_date": null, "end_date": "-188" }, "geometry": { "type": "Point", "coordinates": [ 27.585075, 37.278837 ] } },
{ "type": "Feature", "properties": { "title": "Lydda\/Diospolis\/Georgioupolis", "source": 687953, "target": "45635759", "start_date": null, "end_date": null }, "geometry": { "type": "Point", "coordinates": [ 34.892378, 31.9582535 ] } },
{ "type": "Feature", "properties": { "title": "Antigoneia\/(Col. Augusta) Alexandria Troas", "source": 550434, "target": "45635759", "start_date": -281.0, "end_date": "-196" }, "geometry": { "type": "Point", "coordinates": [ 26.1547495, 39.7564735 ] } },
{ "type": "Feature", "properties": { "title": "Antiochia\/Col. Caesarea", "source": 609307, "target": "45635759", "start_date": -281.0, "end_date": "-261" }, "geometry": { "type": "Point", "coordinates": [ 31.1894355, 38.305175 ] } },
{ "type": "Feature", "properties": { "title": "Casiana", "source": 975410331, "target": "45635759", "start_date": null, "end_date": null }, "geometry": { "type": "Point", "coordinates": [ 36.4064745, 35.425762 ] } },
{ "type": "Feature", "properties": { "title": "Assos\/Apollonia", "source": 550463, "target": "45635759", "start_date": -281.0, "end_date": "-241" }, "geometry": { "type": "Point", "coordinates": [ 26.3383585, 39.491111 ] } },
{ "type": "Feature", "properties": { "title": "Babylon", "source": 893951, "target": "45635759", "start_date": -245.0, "end_date": "-140" }, "geometry": { "type": "Point", "coordinates": [ 44.423617644899998, 32.538783463599998 ] } },
{ "type": "Feature", "properties": { "title": "Ioppe", "source": 687931, "target": "45635759", "start_date": null, "end_date": null }, "geometry": { "type": "Point", "coordinates": [ 34.7499295, 32.053079 ] } },
{ "type": "Feature", "properties": { "title": "Skepsis", "source": 550890, "target": "45635759", "start_date": null, "end_date": "-188" }, "geometry": { "type": "Point", "coordinates": [ 26.688003, 39.82554 ] } },
{ "type": "Feature", "properties": { "title": "Achaia (settlement)", "source": 60403, "target": "45635759", "start_date": -305.0, "end_date": null }, "geometry": { "type": "Point", "coordinates": [ 61.5, 34.5 ] } },
{ "type": "Feature", "properties": { "title": "Seleukobelos?", "source": 668364, "target": "45635759", "start_date": null, "end_date": null }, "geometry": { "type": "Point", "coordinates": [ 36.328006, 35.83691 ] } },
{ "type": "Feature", "properties": { "title": "Eleutheros (river)", "source": 668241, "target": "45635759", "start_date": null, "end_date": null }, "geometry": { "type": "Point", "coordinates": [ 36.0743639, 34.6281243 ] } },
{ "type": "Feature", "properties": { "title": "Seleukis", "source": 658592, "target": "45635759", "start_date": null, "end_date": null }, "geometry": { "type": "Point", "coordinates": [ 36.25, 36.25 ] } },
{ "type": "Feature", "properties": { "title": "Kardia\/Lysimacheia", "source": 501458, "target": "45635759", "start_date": null, "end_date": "-188" }, "geometry": { "type": "Point", "coordinates": [ 26.75081, 40.548232 ] } },
{ "type": "Feature", "properties": { "title": "Aigai(ai)\/Aegeae", "source": 658368, "target": "45635759", "start_date": -246.0, "end_date": null }, "geometry": { "type": "Point", "coordinates": [ 35.789487, 36.769676 ] } },
{ "type": "Feature", "properties": { "title": "Klazomenai (later)", "source": 550651, "target": "45635759", "start_date": -281.0, "end_date": "-188" }, "geometry": { "type": "Point", "coordinates": [ 26.77422735, 38.363596416699998 ] } },
{ "type": "Feature", "properties": { "title": "Idumaea", "source": 687927, "target": "45635759", "start_date": null, "end_date": null }, "geometry": { "type": "Point", "coordinates": [ 34.75, 31.25 ] } },
{ "type": "Feature", "properties": { "title": "Cyrrestice", "source": 658445, "target": "45635759", "start_date": null, "end_date": null }, "geometry": { "type": "Point", "coordinates": [ 36.75, 36.75 ] } },
{ "type": "Feature", "properties": { "title": "Sidon\/Col. Aurelia Pia", "source": 678393, "target": "45635759", "start_date": null, "end_date": null }, "geometry": { "type": "Point", "coordinates": [ 35.37324, 33.560328 ] } },
{ "type": "Feature", "properties": { "title": "Beroia", "source": 658409, "target": "45635759", "start_date": -305.0, "end_date": "-80" }, "geometry": { "type": "Point", "coordinates": [ 37.162835141099997, 36.199407412500001 ] } },
{ "type": "Feature", "properties": { "title": "Mygdonia", "source": 874614, "target": "45635759", "start_date": null, "end_date": null }, "geometry": { "type": "Point", "coordinates": [ 40.5, 36.5 ] } },
{ "type": "Feature", "properties": { "title": "Ierusalem\/Hierosolyma\/Col. Aelia Capitolina", "source": 687928, "target": "45635759", "start_date": null, "end_date": null }, "geometry": { "type": "Point", "coordinates": [ 35.234156, 31.776679 ] } },
{ "type": "Feature", "properties": { "title": "Troas (region)", "source": 550944, "target": "45635759", "start_date": null, "end_date": "-188" }, "geometry": { "type": "Point", "coordinates": [ 26.3369435348, 39.837051521799999 ] } },
{ "type": "Feature", "properties": { "title": "Tyrus\/Col. Septimia Severa", "source": 678437, "target": "45635759", "start_date": null, "end_date": null }, "geometry": { "type": "Point", "coordinates": [ 35.2038435, 33.2698475 ] } },
{ "type": "Feature", "properties": { "title": "Laodicea", "source": 668290, "target": "45635759", "start_date": null, "end_date": null }, "geometry": { "type": "Point", "coordinates": [ 35.7766297, 35.51892275 ] } },
{ "type": "Feature", "properties": { "title": "Karastel\/Artemita?", "source": 894020, "target": "45635759", "start_date": null, "end_date": null }, "geometry": { "type": "Point", "coordinates": [ 44.822085, 33.88109 ] } },
{ "type": "Feature", "properties": { "title": "Europos", "source": 658465, "target": "45635759", "start_date": null, "end_date": null }, "geometry": { "type": "Point", "coordinates": [ 38.012758, 36.823588 ] } },
{ "type": "Feature", "properties": { "title": "Laodicea ad Lycum\/Diospolis\/Roas", "source": 638955, "target": "45635759", "start_date": -261.0, "end_date": "-246" }, "geometry": { "type": "Point", "coordinates": [ 29.104542, 37.831408 ] } },
{ "type": "Feature", "properties": { "title": "Baitokaike", "source": 668205, "target": "45635759", "start_date": null, "end_date": null }, "geometry": { "type": "Point", "coordinates": [ 36.251155, 34.9304415 ] } },
{ "type": "Feature", "properties": { "title": "Seleucia\/Claudioseleucia\/Seleucia Sidera", "source": 639098, "target": "45635759", "start_date": -281.0, "end_date": "-261" }, "geometry": { "type": "Point", "coordinates": [ 30.621286333299999, 37.896320666699999 ] } },
{ "type": "Feature", "properties": { "title": "Nippur\/Nufar\/‘Hippareni’", "source": 912910, "target": "45635759", "start_date": null, "end_date": null }, "geometry": { "type": "Point", "coordinates": [ 45.230833, 32.126944 ] } },
{ "type": "Feature", "properties": { "title": "Gerasa\/Antiochia ad Chrysorhoam", "source": 678158, "target": "45635759", "start_date": null, "end_date": null }, "geometry": { "type": "Point", "coordinates": [ 35.891768, 32.2788645 ] } },
{ "type": "Feature", "properties": { "title": "Colophon\/Colophon ad Mare\/Notion", "source": 599578, "target": "45635759", "start_date": null, "end_date": "-188" }, "geometry": { "type": "Point", "coordinates": [ 27.200852, 37.9952785 ] } },
{ "type": "Feature", "properties": { "title": "Rhaga(i)\/Europos\/Arsakia\/Ray", "source": 903104, "target": "45635759", "start_date": null, "end_date": null }, "geometry": { "type": "Point", "coordinates": [ 51.447163, 35.594267 ] } },
{ "type": "Feature", "properties": { "title": "Herakleia?", "source": 668262, "target": "45635759", "start_date": null, "end_date": null }, "geometry": { "type": "Point", "coordinates": [ 35.737432221200002, 35.587613333599997 ] } },
{ "type": "Feature", "properties": { "title": "Arpadda", "source": 122919705, "target": "45635759", "start_date": null, "end_date": null }, "geometry": { "type": "Point", "coordinates": [ 37.0947397, 36.4725818 ] } },
{ "type": "Feature", "properties": { "title": "Bactria", "source": 971705, "target": "45635759", "start_date": null, "end_date": null }, "geometry": { "type": "Point", "coordinates": [ 67.5, 37.5 ] } },
{ "type": "Feature", "properties": { "title": "Aphrodisias", "source": 648565, "target": "45635759", "start_date": null, "end_date": "-197" }, "geometry": { "type": "Point", "coordinates": [ 33.685873, 36.157963 ] } },
{ "type": "Feature", "properties": { "title": "Madytos", "source": 501503, "target": "45635759", "start_date": null, "end_date": "-188" }, "geometry": { "type": "Point", "coordinates": [ 26.357002, 40.186504 ] } },
{ "type": "Feature", "properties": { "title": "Cutha", "source": 893977, "target": "45635759", "start_date": null, "end_date": null }, "geometry": { "type": "Point", "coordinates": [ 44.611587011799998, 32.7609196481 ] } },
{ "type": "Feature", "properties": { "title": "Miletus", "source": 599799, "target": "45635759", "start_date": null, "end_date": "-188" }, "geometry": { "type": "Point", "coordinates": [ 27.2783168333, 37.522904733300003 ] } },
{ "type": "Feature", "properties": { "title": "Koile Syria\/Massyas", "source": 668288, "target": "45635759", "start_date": null, "end_date": null }, "geometry": { "type": "Point", "coordinates": [ 36.25, 34.25 ] } },
{ "type": "Feature", "properties": { "title": "Byblos", "source": 668216, "target": "45635759", "start_date": null, "end_date": null }, "geometry": { "type": "Point", "coordinates": [ 35.646289, 34.1192635 ] } },
{ "type": "Feature", "properties": { "title": "Kataonia", "source": 629004, "target": "45635759", "start_date": null, "end_date": null }, "geometry": { "type": "Point", "coordinates": [ 36.25, 38.25 ] } },
{ "type": "Feature", "properties": { "title": "Temnos", "source": 550908, "target": "45635759", "start_date": -282.0, "end_date": "-218" }, "geometry": { "type": "Point", "coordinates": [ 27.196998, 38.671912 ] } },
{ "type": "Feature", "properties": { "title": "Nakrason (or Nakrasos)", "source": 550767, "target": "45635759", "start_date": null, "end_date": "-188" }, "geometry": { "type": "Point", "coordinates": [ 27.740303466699999, 39.082304133299999 ] } },
{ "type": "Feature", "properties": { "title": "Ilium\/Troia", "source": 550595, "target": "45635759", "start_date": -281.0, "end_date": "-190" }, "geometry": { "type": "Point", "coordinates": [ 26.238458622700001, 39.957432784399998 ] } },
{ "type": "Feature", "properties": { "title": "Commagene", "source": 658443, "target": "45635759", "start_date": null, "end_date": null }, "geometry": { "type": "Point", "coordinates": [ 37.9555335, 36.526222 ] } },
{ "type": "Feature", "properties": { "title": "Zephyrion\/Hadrianopolis", "source": 648810, "target": "45635759", "start_date": null, "end_date": null }, "geometry": { "type": "Point", "coordinates": [ 34.638066, 36.808642 ] } },
{ "type": "Feature", "properties": { "title": "Anemurium", "source": 648557, "target": "45635759", "start_date": null, "end_date": "-197" }, "geometry": { "type": "Point", "coordinates": [ 32.804404, 36.024089333299997 ] } },
{ "type": "Feature", "properties": { "title": "Adramyttium", "source": 550403, "target": "45635759", "start_date": -281.0, "end_date": "-191" }, "geometry": { "type": "Point", "coordinates": [ 26.936321, 39.5023635 ] } },
{ "type": "Feature", "properties": { "title": "Akkad", "source": 56567730, "target": "45635759", "start_date": null, "end_date": null }, "geometry": { "type": "Point", "coordinates": [ 44.5, 32.5 ] } },
{ "type": "Feature", "properties": { "title": "Phocaea", "source": 550823, "target": "45635759", "start_date": -282.0, "end_date": "-218" }, "geometry": { "type": "Point", "coordinates": [ 26.754884, 38.6703265 ] } },
{ "type": "Feature", "properties": { "title": "Kypsela", "source": 501489, "target": "45635759", "start_date": null, "end_date": "-188" }, "geometry": { "type": "Point", "coordinates": [ 26.3920505, 40.9245125 ] } },
{ "type": "Feature", "properties": { "title": "Colophon", "source": 599577, "target": "45635759", "start_date": -282.0, "end_date": "-218" }, "geometry": { "type": "Point", "coordinates": [ 27.1483085, 38.108253 ] } },
{ "type": "Feature", "properties": { "title": "Nicephorium\/Callinicum\/Leontopolis", "source": 668318, "target": "45635759", "start_date": null, "end_date": null }, "geometry": { "type": "Point", "coordinates": [ 39.056991333299997, 35.950018333300001 ] } },
{ "type": "Feature", "properties": { "title": "Teos", "source": 550913, "target": "45635759", "start_date": -282.0, "end_date": "-218" }, "geometry": { "type": "Point", "coordinates": [ 26.785397, 38.185491 ] } },
{ "type": "Feature", "properties": { "title": "Tapouroi", "source": 884219, "target": "45635759", "start_date": null, "end_date": null }, "geometry": { "type": "Point", "coordinates": [ 51.5, 36.5 ] } },
{ "type": "Feature", "properties": { "title": "Sophene", "source": 874707, "target": "45635759", "start_date": null, "end_date": null }, "geometry": { "type": "Point", "coordinates": [ 39.5, 38.5 ] } },
{ "type": "Feature", "properties": { "title": "Hyrkanis", "source": 550588, "target": "45635759", "start_date": -281.0, "end_date": "-261" }, "geometry": { "type": "Point", "coordinates": [ 27.667099, 38.667539 ] } },
{ "type": "Feature", "properties": { "title": "Bactra\/Zariaspa", "source": 961886, "target": "45635759", "start_date": null, "end_date": null }, "geometry": { "type": "Point", "coordinates": [ 66.9006005, 36.7615135 ] } },
{ "type": "Feature", "properties": { "title": "Sagalassos", "source": 639087, "target": "45635759", "start_date": null, "end_date": "-188" }, "geometry": { "type": "Point", "coordinates": [ 30.514161, 37.6728872 ] } },
{ "type": "Feature", "properties": { "title": "Hecatompylos?\/Komish\/[(Shahr-i) Qumis]", "source": 942276, "target": "45635759", "start_date": null, "end_date": null }, "geometry": { "type": "Point", "coordinates": [ 54.0382895, 35.9610935 ] } },
{ "type": "Feature", "properties": { "title": "Samaria\/Sebaste", "source": 678370, "target": "45635759", "start_date": null, "end_date": null }, "geometry": { "type": "Point", "coordinates": [ 35.190436, 32.276529 ] } },
{ "type": "Feature", "properties": { "title": "Ephesus\/Arsinoe(ia)", "source": 599612, "target": "45635759", "start_date": null, "end_date": "-188" }, "geometry": { "type": "Point", "coordinates": [ 27.340307, 37.9407625 ] } },
{ "type": "Feature", "properties": { "title": "Euboea (island)", "source": 540775, "target": "45635759", "start_date": null, "end_date": "-188" }, "geometry": { "type": "Point", "coordinates": [ 23.87, 38.53 ] } },
{ "type": "Feature", "properties": { "title": "Apollonia Salbakes", "source": 638757, "target": "45635759", "start_date": null, "end_date": "-188" }, "geometry": { "type": "Point", "coordinates": [ 29.039064, 37.51511 ] } },
{ "type": "Feature", "properties": { "title": "Milyas (region)", "source": 638996, "target": "45635759", "start_date": null, "end_date": "-188" }, "geometry": { "type": "Point", "coordinates": [ 29.75, 36.75 ] } },
{ "type": "Feature", "properties": { "title": "Memphis", "source": 736963, "target": "45635759", "start_date": null, "end_date": null }, "geometry": { "type": "Point", "coordinates": [ 31.255061, 29.849491 ] } },
{ "type": "Feature", "properties": { "title": "Erythrai", "source": 550535, "target": "45635759", "start_date": null, "end_date": "-188" }, "geometry": { "type": "Point", "coordinates": [ 26.47994, 38.382361 ] } },
{ "type": "Feature", "properties": { "title": "Gaulanitis", "source": 678150, "target": "45635759", "start_date": null, "end_date": null }, "geometry": { "type": "Point", "coordinates": [ 35.75, 33.25 ] } },
{ "type": "Feature", "properties": { "title": "Neapolis", "source": 678301, "target": "45635759", "start_date": null, "end_date": null }, "geometry": { "type": "Point", "coordinates": [ 35.262911, 32.218685 ] } },
{ "type": "Feature", "properties": { "title": "Apamea", "source": 658385, "target": "45635759", "start_date": null, "end_date": null }, "geometry": { "type": "Point", "coordinates": [ 37.870076, 37.067994 ] } },
{ "type": "Feature", "properties": { "title": "Larsa", "source": 912897, "target": "45635759", "start_date": null, "end_date": null }, "geometry": { "type": "Point", "coordinates": [ 45.853611, 31.285833 ] } },
{ "type": "Feature", "properties": { "title": "Ashdod\/Azotos (Mesogeios)", "source": 687838, "target": "45635759", "start_date": null, "end_date": null }, "geometry": { "type": "Point", "coordinates": [ 34.65407, 31.7608365 ] } },
{ "type": "Feature", "properties": { "title": "Priene\/‘Lince’?", "source": 599905, "target": "45635759", "start_date": null, "end_date": "-188" }, "geometry": { "type": "Point", "coordinates": [ 27.298333, 37.66 ] } },
{ "type": "Feature", "properties": { "title": "Antigonia", "source": 658380, "target": "45635759", "start_date": null, "end_date": null }, "geometry": { "type": "Point", "coordinates": [ 36.230077, 36.26335 ] } },
{ "type": "Feature", "properties": { "title": "Alexandria Ariorum\/Artacavan\/Harey", "source": 961874, "target": "45635759", "start_date": null, "end_date": null }, "geometry": { "type": "Point", "coordinates": [ 62.188384, 34.345833 ] } },
{ "type": "Feature", "properties": { "title": "Hierapolis\/Bambyke", "source": 658480, "target": "45635759", "start_date": null, "end_date": null }, "geometry": { "type": "Point", "coordinates": [ 37.9555335, 36.526222 ] } },
{ "type": "Feature", "properties": { "title": "Philadelpheia?", "source": 648736, "target": "45635759", "start_date": null, "end_date": "-188" }, "geometry": { "type": "Point", "coordinates": [ 33.0250915, 36.622766 ] } },
{ "type": "Feature", "properties": { "title": "Gazara", "source": 687904, "target": "45635759", "start_date": null, "end_date": null }, "geometry": { "type": "Point", "coordinates": [ 34.920181, 31.866353 ] } },
{ "type": "Feature", "properties": { "title": "Parium\/Col. Gemella Iulia *Hadriana", "source": 511354, "target": "45635759", "start_date": null, "end_date": "-188" }, "geometry": { "type": "Point", "coordinates": [ 27.069096, 40.420499 ] } },
{ "type": "Feature", "properties": { "title": "Kisthene?", "source": 550648, "target": "45635759", "start_date": -281.0, "end_date": "-262" }, "geometry": { "type": "Point", "coordinates": [ 26.813175, 39.393183 ] } },
{ "type": "Feature", "properties": { "title": "Seleukeia epi tou Zeugmatos", "source": 658589, "target": "45635759", "start_date": null, "end_date": null }, "geometry": { "type": "Point", "coordinates": [ 38.094502, 37.442284 ] } },
{ "type": "Feature", "properties": { "title": "Daphne", "source": 658450, "target": "45635759", "start_date": null, "end_date": null }, "geometry": { "type": "Point", "coordinates": [ 36.1378635, 36.1336355 ] } },
{ "type": "Feature", "properties": { "title": "Magarsa\/Antiochia ad Pyramum", "source": 648701, "target": "45635759", "start_date": null, "end_date": null }, "geometry": { "type": "Point", "coordinates": [ 35.3455155, 36.5449515 ] } },
{ "type": "Feature", "properties": { "title": "Myrina\/Sebastopolis", "source": 550756, "target": "45635759", "start_date": null, "end_date": "-188" }, "geometry": { "type": "Point", "coordinates": [ 26.985537, 38.840097 ] } },
{ "type": "Feature", "properties": { "title": "Selinous\/Traianopolis", "source": 648772, "target": "45635759", "start_date": null, "end_date": "-188" }, "geometry": { "type": "Point", "coordinates": [ 32.282734, 36.258509 ] } },
{ "type": "Feature", "properties": { "title": "Abydos", "source": 501325, "target": "45635759", "start_date": -245.0, "end_date": "-245" }, "geometry": { "type": "Point", "coordinates": [ 26.409131, 40.1951155 ] } },
{ "type": "Feature", "properties": { "title": "Pella\/Berenice\/Philippeia", "source": 678326, "target": "45635759", "start_date": null, "end_date": null }, "geometry": { "type": "Point", "coordinates": [ 35.615059515900001, 32.449405261199999 ] } },
{ "type": "Feature", "properties": { "title": "Corycus", "source": 648612, "target": "45635759", "start_date": null, "end_date": "-188" }, "geometry": { "type": "Point", "coordinates": [ 34.151396, 36.4662635 ] } },
{ "type": "Feature", "properties": { "title": "Lycaonia", "source": 648698, "target": "45635759", "start_date": null, "end_date": "-188" }, "geometry": { "type": "Point", "coordinates": [ 32.75, 37.25 ] } },
{ "type": "Feature", "properties": { "title": "Tarsus\/Antiochia ad Cydnum", "source": 648789, "target": "45635759", "start_date": null, "end_date": null }, "geometry": { "type": "Point", "coordinates": [ 34.898228, 36.914956 ] } },
{ "type": "Feature", "properties": { "title": "Borsippa\/Burs", "source": 893964, "target": "45635759", "start_date": null, "end_date": null }, "geometry": { "type": "Point", "coordinates": [ 44.34719, 32.389256 ] } },
{ "type": "Feature", "properties": { "title": "Mallos\/Antiochia ad Pyramum", "source": 648702, "target": "45635759", "start_date": null, "end_date": null }, "geometry": { "type": "Point", "coordinates": [ 35.453557, 36.7395805 ] } },
{ "type": "Feature", "properties": { "title": "Arrapha\/Karkha de Beth Seluk", "source": 893941, "target": "45635759", "start_date": null, "end_date": null }, "geometry": { "type": "Point", "coordinates": [ 44.3953, 35.468099 ] } },
{ "type": "Feature", "properties": { "title": "Elis", "source": 570221, "target": "45635759", "start_date": null, "end_date": "-188" }, "geometry": { "type": "Point", "coordinates": [ 21.25, 37.75 ] } },
{ "type": "Feature", "properties": { "title": "Syria", "source": 1306, "target": "45635759", "start_date": null, "end_date": null }, "geometry": { "type": "Point", "coordinates": [ 37.5, 37.5 ] } },
{ "type": "Feature", "properties": { "title": "Gergis", "source": 550547, "target": "45635759", "start_date": null, "end_date": "-188" }, "geometry": { "type": "Point", "coordinates": [ 26.609255, 39.898491 ] } },
{ "type": "Feature", "properties": { "title": "Ramathaim\/Arimathaia", "source": 688014, "target": "45635759", "start_date": null, "end_date": null }, "geometry": { "type": "Point", "coordinates": [ 35.021578, 32.040597 ] } },
{ "type": "Feature", "properties": { "title": "Antiochia\/Theoupolis", "source": 658381, "target": "45635759", "start_date": -246.0, "end_date": "-246" }, "geometry": { "type": "Point", "coordinates": [ 36.183214, 36.2225515 ] } },
{ "type": "Feature", "properties": { "title": "Doliche", "source": 658455, "target": "45635759", "start_date": null, "end_date": null }, "geometry": { "type": "Point", "coordinates": [ 37.359985, 37.153671 ] } },
{ "type": "Feature", "properties": { "title": "Peraea", "source": 697724, "target": "45635759", "start_date": null, "end_date": null }, "geometry": { "type": "Point", "coordinates": [ 35.75, 31.75 ] } },
{ "type": "Feature", "properties": { "title": "Philoteria", "source": 678333, "target": "45635759", "start_date": null, "end_date": null }, "geometry": { "type": "Point", "coordinates": [ 35.573386, 32.713858 ] } },
{ "type": "Feature", "properties": { "title": "Achaion Limen", "source": 550399, "target": "45635759", "start_date": -281.0, "end_date": "-250" }, "geometry": { "type": "Point", "coordinates": [ 27.039491, 38.858153 ] } },
{ "type": "Feature", "properties": { "title": "Nicopolis", "source": 658547, "target": "45635759", "start_date": null, "end_date": null }, "geometry": { "type": "Point", "coordinates": [ 36.6325185, 37.0262595 ] } },
{ "type": "Feature", "properties": { "title": "Ctesiphon", "source": 893976, "target": "45635759", "start_date": null, "end_date": null }, "geometry": { "type": "Point", "coordinates": [ 44.5812226667, 33.094703 ] } },
{ "type": "Feature", "properties": { "title": "Nisa(ia)\/Parthaunisa\/Mithradatkert\/Shahr-ram-Peroz", "source": 952093, "target": "45635759", "start_date": null, "end_date": null }, "geometry": { "type": "Point", "coordinates": [ 58.388934, 37.937804 ] } },
{ "type": "Feature", "properties": { "title": "Maked", "source": 678275, "target": "45635759", "start_date": null, "end_date": null }, "geometry": { "type": "Point", "coordinates": [ 36.187397, 32.943342 ] } },
{ "type": "Feature", "properties": { "title": "Labraunda", "source": 599745, "target": "45635759", "start_date": null, "end_date": "-188" }, "geometry": { "type": "Point", "coordinates": [ 27.8199525, 37.4170436 ] } },
{ "type": "Feature", "properties": { "title": "Nisibis\/Antiochia", "source": 874623, "target": "45635759", "start_date": null, "end_date": null }, "geometry": { "type": "Point", "coordinates": [ 41.215446666699997, 37.0675116667 ] } },
{ "type": "Feature", "properties": { "title": "Apamea\/Kelainai\/Kibotos", "source": 638751, "target": "45635759", "start_date": -281.0, "end_date": "-261" }, "geometry": { "type": "Point", "coordinates": [ 30.169066275, 38.068301025 ] } },
{ "type": "Feature", "properties": { "title": "Elymais\/Susiana", "source": 912843, "target": "45635759", "start_date": -311.0, "end_date": null }, "geometry": { "type": "Point", "coordinates": [ 48.5, 32.5 ] } },
{ "type": "Feature", "properties": { "title": "Iudaea (region)", "source": 687934, "target": "45635759", "start_date": null, "end_date": null }, "geometry": { "type": "Point", "coordinates": [ 35.238333, 31.928333 ] } },
{ "type": "Feature", "properties": { "title": "Arbela\/Arba-ilu", "source": 874341, "target": "45635759", "start_date": null, "end_date": null }, "geometry": { "type": "Point", "coordinates": [ 44.015771, 36.178245333299998 ] } },
{ "type": "Feature", "properties": { "title": "Gryneion", "source": 550555, "target": "45635759", "start_date": -281.0, "end_date": "-262" }, "geometry": { "type": "Point", "coordinates": [ 27.069173, 38.874665 ] } },
{ "type": "Feature", "properties": { "title": "Alexandria Oxiana?", "source": 971693, "target": "45635759", "start_date": null, "end_date": null }, "geometry": { "type": "Point", "coordinates": [ 69.411854, 37.163626 ] } },
{ "type": "Feature", "properties": { "title": "Hellespont", "source": 501434, "target": "45635759", "start_date": null, "end_date": "-188" }, "geometry": { "type": "Point", "coordinates": [ 26.4, 40.2 ] } },
{ "type": "Feature", "properties": { "title": "Armenia (region)", "source": 874350, "target": "45635759", "start_date": null, "end_date": null }, "geometry": { "type": "Point", "coordinates": [ 40.5, 39.5 ] } },
{ "type": "Feature", "properties": { "title": "Lydia\/Maionia (region)", "source": 550701, "target": "45635759", "start_date": null, "end_date": "-188" }, "geometry": { "type": "Point", "coordinates": [ 27.922124025, 38.2419844 ] } },
{ "type": "Feature", "properties": { "title": "Dokimeion", "source": 609366, "target": "45635759", "start_date": -281.0, "end_date": "-188" }, "geometry": { "type": "Point", "coordinates": [ 30.7524503667, 38.8627673 ] } },
{ "type": "Feature", "properties": { "title": "‘Ad Nonum’\/Ornithon Polis?", "source": 678000, "target": "45635759", "start_date": null, "end_date": null }, "geometry": { "type": "Point", "coordinates": [ 35.2741667, 33.4047222 ] } },
{ "type": "Feature", "properties": { "title": "Osrhoene", "source": 658561, "target": "45635759", "start_date": null, "end_date": null }, "geometry": { "type": "Point", "coordinates": [ 38.25, 37.25 ] } },
{ "type": "Feature", "properties": { "title": "Xanthos", "source": 639166, "target": "45635759", "start_date": null, "end_date": "-188" }, "geometry": { "type": "Point", "coordinates": [ 29.31836, 36.355934 ] } },
{ "type": "Feature", "properties": { "title": "Nemavand\/Laodicea\/Niphaunda", "source": 903088, "target": "45635759", "start_date": null, "end_date": null }, "geometry": { "type": "Point", "coordinates": [ 48.367981, 34.18761 ] } },
{ "type": "Feature", "properties": { "title": "Didyma\/Branchidai\/Ioustinianopolis", "source": 599593, "target": "45635759", "start_date": null, "end_date": "-188" }, "geometry": { "type": "Point", "coordinates": [ 27.256115, 37.384829 ] } },
{ "type": "Feature", "properties": { "title": "Kretopolis", "source": 638946, "target": "45635759", "start_date": null, "end_date": "-188" }, "geometry": { "type": "Point", "coordinates": [ 30.321707, 37.374984 ] } },
{ "type": "Feature", "properties": { "title": "Cappadocia (region)", "source": 628949, "target": "45635759", "start_date": -255.0, "end_date": null }, "geometry": { "type": "Point", "coordinates": [ 35.75, 39.25 ] } },
{ "type": "Feature", "properties": { "title": "Thessalia", "source": 1332, "target": "45635759", "start_date": null, "end_date": "-188" }, "geometry": { "type": "Point", "coordinates": [ 22.2, 39.6 ] } },
{ "type": "Feature", "properties": { "title": "Gordyene\/Corduena", "source": 874488, "target": "45635759", "start_date": null, "end_date": null }, "geometry": { "type": "Point", "coordinates": [ 42.5, 37.5 ] } },
{ "type": "Feature", "properties": { "title": "Galatis", "source": 678144, "target": "45635759", "start_date": null, "end_date": null }, "geometry": { "type": "Point", "coordinates": [ 35.75, 32.75 ] } },
{ "type": "Feature", "properties": { "title": "Amathe\/Epiphaneia", "source": 668182, "target": "45635759", "start_date": null, "end_date": null }, "geometry": { "type": "Point", "coordinates": [ 36.752969, 35.1485665 ] } },
{ "type": "Feature", "properties": { "title": "Ashur\/‘Lamban’?\/‘Liba(nai)’?", "source": 893945, "target": "45635759", "start_date": null, "end_date": null }, "geometry": { "type": "Point", "coordinates": [ 43.262242777300003, 35.453921526599999 ] } },
{ "type": "Feature", "properties": { "title": "Adiabene", "source": 893935, "target": "45635759", "start_date": null, "end_date": null }, "geometry": { "type": "Point", "coordinates": [ 44.015771, 36.178245333299998 ] } },
{ "type": "Feature", "properties": { "title": "Chalcis sub Libano", "source": 678086, "target": "45635759", "start_date": null, "end_date": null }, "geometry": { "type": "Point", "coordinates": [ 36.241643, 33.95773 ] } },
{ "type": "Feature", "properties": { "title": "Hierapolis\/Kastabala", "source": 658481, "target": "45635759", "start_date": null, "end_date": null }, "geometry": { "type": "Point", "coordinates": [ 36.1873455, 37.176408 ] } },
{ "type": "Feature", "properties": { "title": "(H)Emesa", "source": 668261, "target": "45635759", "start_date": null, "end_date": null }, "geometry": { "type": "Point", "coordinates": [ 36.719319, 34.7376565 ] } },
{ "type": "Feature", "properties": { "title": "Carrhae", "source": 658427, "target": "45635759", "start_date": -311.0, "end_date": null }, "geometry": { "type": "Point", "coordinates": [ 39.0301785, 36.8655215 ] } },
{ "type": "Feature", "properties": { "title": "Margiana\/Margush\/Merv", "source": 961934, "target": "45635759", "start_date": null, "end_date": null }, "geometry": { "type": "Point", "coordinates": [ 62.1926395, 37.6662575 ] } },
{ "type": "Feature", "properties": { "title": "Gambreion", "source": 550542, "target": "45635759", "start_date": -281.0, "end_date": "-262" }, "geometry": { "type": "Point", "coordinates": [ 27.25, 39.25 ] } },
{ "type": "Feature", "properties": { "title": "Lysias?", "source": 668300, "target": "45635759", "start_date": null, "end_date": null }, "geometry": { "type": "Point", "coordinates": [ 36.155416, 35.645991 ] } },
{ "type": "Feature", "properties": { "title": "Batanaia\/Basanitis", "source": 678054, "target": "45635759", "start_date": null, "end_date": null }, "geometry": { "type": "Point", "coordinates": [ 36.25, 33.25 ] } },
{ "type": "Feature", "properties": { "title": "Perge", "source": 639048, "target": "45635759", "start_date": null, "end_date": "-188" }, "geometry": { "type": "Point", "coordinates": [ 30.8530306, 36.960008725 ] } },
{ "type": "Feature", "properties": { "title": "Zeleia", "source": 511461, "target": "45635759", "start_date": null, "end_date": "-188" }, "geometry": { "type": "Point", "coordinates": [ 27.59613655, 40.20357415 ] } },
{ "type": "Feature", "properties": { "title": "Iulia Gordos\/*Porotta?", "source": 550601, "target": "45635759", "start_date": null, "end_date": "-188" }, "geometry": { "type": "Point", "coordinates": [ 28.31421, 38.876702 ] } },
{ "type": "Feature", "properties": { "title": "Sogdiana", "source": 60058, "target": "45635759", "start_date": null, "end_date": null }, "geometry": { "type": "Point", "coordinates": [ 67.283474042400002, 39.571592379899997 ] } },
{ "type": "Feature", "properties": { "title": "Alexandria Eschate", "source": 59672, "target": "45635759", "start_date": null, "end_date": null }, "geometry": { "type": "Point", "coordinates": [ 69.640562, 40.264798 ] } },
{ "type": "Feature", "properties": { "title": "Ake\/Ptolemais", "source": 678010, "target": "45635759", "start_date": null, "end_date": null }, "geometry": { "type": "Point", "coordinates": [ 35.079835, 32.92128675 ] } },
{ "type": "Feature", "properties": { "title": "Larissa\/Sizara", "source": 668292, "target": "45635759", "start_date": null, "end_date": null }, "geometry": { "type": "Point", "coordinates": [ 36.58391, 35.27623 ] } },
{ "type": "Feature", "properties": { "title": "Cyrrus\/Hagioupolis", "source": 658446, "target": "45635759", "start_date": null, "end_date": null }, "geometry": { "type": "Point", "coordinates": [ 36.952677, 36.7396705 ] } },
{ "type": "Feature", "properties": { "title": "Babylonia", "source": 912816, "target": "45635759", "start_date": -320.0, "end_date": "-140" }, "geometry": { "type": "Point", "coordinates": [ 44.5, 32.5 ] } },
{ "type": "Feature", "properties": { "title": "Pasargadae\/Batrakatash", "source": 922693, "target": "45635759", "start_date": null, "end_date": null }, "geometry": { "type": "Point", "coordinates": [ 53.171660775, 30.191851725 ] } },
{ "type": "Feature", "properties": { "title": "Nysa\/Athymbra", "source": 599832, "target": "45635759", "start_date": -281.0, "end_date": "-261" }, "geometry": { "type": "Point", "coordinates": [ 28.1480965, 37.895594 ] } },
{ "type": "Feature", "properties": { "title": "Ashqelon\/Ascalon", "source": 687839, "target": "45635759", "start_date": null, "end_date": null }, "geometry": { "type": "Point", "coordinates": [ 34.545947, 31.6659785 ] } },
{ "type": "Feature", "properties": { "title": "Alexandria ad Issum", "source": 658371, "target": "45635759", "start_date": null, "end_date": null }, "geometry": { "type": "Point", "coordinates": [ 36.173273, 36.5841815 ] } },
{ "type": "Feature", "properties": { "title": "Tralles\/Dia\/Seleuceia ad Maeandrum\/Kaisareia", "source": 599987, "target": "45635759", "start_date": -281.0, "end_date": "-261" }, "geometry": { "type": "Point", "coordinates": [ 27.839042, 37.8566255 ] } },
{ "type": "Feature", "properties": { "title": "Edessa\/Antiochia ad Callirhoem", "source": 658457, "target": "45635759", "start_date": null, "end_date": null }, "geometry": { "type": "Point", "coordinates": [ 38.781432, 37.1625575 ] } },
{ "type": "Feature", "properties": { "title": "Bostra\/Col. Nova Traiana Alexandriana", "source": 678073, "target": "45635759", "start_date": null, "end_date": null }, "geometry": { "type": "Point", "coordinates": [ 36.48369, 32.517831 ] } },
{ "type": "Feature", "properties": { "title": "Persis\/Pars", "source": 922698, "target": "45635759", "start_date": null, "end_date": null }, "geometry": { "type": "Point", "coordinates": [ 51.5, 30.5 ] } },
{ "type": "Feature", "properties": { "title": "Dura", "source": 893989, "target": "45635759", "start_date": null, "end_date": null }, "geometry": { "type": "Point", "coordinates": [ 43.795251, 34.459007 ] } },
{ "type": "Feature", "properties": { "title": "Atarneus", "source": 550469, "target": "45635759", "start_date": -281.0, "end_date": "-262" }, "geometry": { "type": "Point", "coordinates": [ 26.927974, 39.093987 ] } },
{ "type": "Feature", "properties": { "title": "Seleucia ad Calycadnum\/Tracheia", "source": 648771, "target": "45635759", "start_date": null, "end_date": "-188" }, "geometry": { "type": "Point", "coordinates": [ 33.9214625, 36.379274 ] } },
{ "type": "Feature", "properties": { "title": "Hierapolis", "source": 609403, "target": "45635759", "start_date": -281.0, "end_date": "-261" }, "geometry": { "type": "Point", "coordinates": [ 30.197699, 38.461767 ] } },
{ "type": "Feature", "properties": { "title": "Lyrbe?", "source": 638970, "target": "45635759", "start_date": -281.0, "end_date": "-261" }, "geometry": { "type": "Point", "coordinates": [ 31.475921, 36.873988 ] } },
{ "type": "Feature", "properties": { "title": "Pella\/Apamea", "source": 668335, "target": "45635759", "start_date": null, "end_date": null }, "geometry": { "type": "Point", "coordinates": [ 36.402509, 35.422241 ] } },
{ "type": "Feature", "properties": { "title": "Magnesia ad Sipylum", "source": 550706, "target": "45635759", "start_date": -281.0, "end_date": "-261" }, "geometry": { "type": "Point", "coordinates": [ 27.4873015, 38.541317 ] } },
{ "type": "Feature", "properties": { "title": "Side", "source": 639105, "target": "45635759", "start_date": null, "end_date": "-188" }, "geometry": { "type": "Point", "coordinates": [ 31.3940885, 36.772309 ] } },
{ "type": "Feature", "properties": { "title": "Parthyene\/Parthia", "source": 952097, "target": "45635759", "start_date": -282.0, "end_date": "-245" }, "geometry": { "type": "Point", "coordinates": [ 57.5, 38.5 ] } },
{ "type": "Feature", "properties": { "title": "Ainos", "source": 501337, "target": "45635759", "start_date": -281.0, "end_date": "-246" }, "geometry": { "type": "Point", "coordinates": [ 26.085729, 40.7248985 ] } },
{ "type": "Feature", "properties": { "title": "Chersonesus", "source": 501386, "target": "45635759", "start_date": null, "end_date": "-188" }, "geometry": { "type": "Point", "coordinates": [ 26.5, 40.33333 ] } },
{ "type": "Feature", "properties": { "title": "Priapus", "source": 511375, "target": "45635759", "start_date": null, "end_date": "-188" }, "geometry": { "type": "Point", "coordinates": [ 27.303743, 40.403338 ] } },
{ "type": "Feature", "properties": { "title": "Didymateiche", "source": 511235, "target": "45635759", "start_date": -282.0, "end_date": "-218" }, "geometry": { "type": "Point", "coordinates": [ 27.274404, 40.286031 ] } },
{ "type": "Feature", "properties": { "title": "Amphipolis\/Tourmeda\/Nikatoris?", "source": 658377, "target": "45635759", "start_date": null, "end_date": null }, "geometry": { "type": "Point", "coordinates": [ 38.227144, 36.442242 ] } },
{ "type": "Feature", "properties": { "title": "Oeniandos\/Epiphaneia", "source": 658556, "target": "45635759", "start_date": null, "end_date": null }, "geometry": { "type": "Point", "coordinates": [ 36.154414666699999, 36.9618923333 ] } },
{ "type": "Feature", "properties": { "title": "Agatheira", "source": 550414, "target": "45635759", "start_date": null, "end_date": "-188" }, "geometry": { "type": "Point", "coordinates": [ 27.683354, 38.661362 ] } },
{ "type": "Feature", "properties": { "title": "Media Atropatene", "source": 874597, "target": "45635759", "start_date": null, "end_date": null }, "geometry": { "type": "Point", "coordinates": [ 45.5, 38.5 ] } },
{ "type": "Feature", "properties": { "title": "Media\/Mad(aya) (region)", "source": 903080, "target": "45635759", "start_date": -311.0, "end_date": null }, "geometry": { "type": "Point", "coordinates": [ 46.5, 34.5 ] } },
{ "type": "Feature", "properties": { "title": "Susa\/Seleucia ad Eulaeum", "source": 912936, "target": "45635759", "start_date": null, "end_date": null }, "geometry": { "type": "Point", "coordinates": [ 48.2537285, 32.1887935 ] } },
{ "type": "Feature", "properties": { "title": "Orthosia", "source": 668325, "target": "45635759", "start_date": null, "end_date": null }, "geometry": { "type": "Point", "coordinates": [ 35.954768, 34.510876 ] } },
{ "type": "Feature", "properties": { "title": "Kebren", "source": 550633, "target": "45635759", "start_date": -281.0, "end_date": "-261" }, "geometry": { "type": "Point", "coordinates": [ 26.563032, 39.741803 ] } },
{ "type": "Feature", "properties": { "title": "Gaza", "source": 687902, "target": "45635759", "start_date": null, "end_date": null }, "geometry": { "type": "Point", "coordinates": [ 34.451719, 31.5202095 ] } }
]
}
